City_ID,City,Lat,Lng,Max Temp,Humidity,Cloudiness,Wind Speed,Country,Date
0,port-aux-francais,-49.35,70.2167,8.08,97,100,13.87,TF,1712253531
1,saipan,15.1355,145.701,26.39,78,75,6.69,MP,1712253531
2,waitangi,-43.9535,-176.5597,14.9,97,100,2.24,NZ,1712253531
3,aasiaat,68.7098,-52.8699,-5.85,89,97,0.85,GL,1712253531
4,peniche,39.3558,-9.3811,18.38,80,100,7.81,PT,1712253531
5,mejit,10.2753,170.8646,26.7,80,100,7.84,MH,1712253531
6,albany,42.6001,-73.9662,3.19,79,100,1.79,US,1712253531
7,adamstown,-25.066,-130.1015,22.55,67,40,4.72,PN,1712253531
8,edinburgh of the seven seas,-37.0676,-12.3116,17.07,81,98,10.13,SH,1712253531
9,grytviken,-54.2811,-36.5092,5.47,83,91,1.93,GS,1712253531
10,broken hill,-31.95,141.4333,14.3,55,0,5.71,AU,1712253308
11,bilibino,68.0546,166.4372,-26.62,96,28,1.18,RU,1712253532
12,del rio,29.3627,-100.8968,30.07,12,0,2.57,US,1712253375
13,mount isa,-20.7333,139.5,20.87,64,1,6.17,AU,1712253532
14,ebon,4.582,168.6964,27.67,79,100,7.61,MH,1712253532
15,lazaro cardenas,17.9583,-102.2,26.99,54,6,4.1,MX,1712253404
16,iqaluit,63.7506,-68.5145,-8.15,67,20,10.8,CA,1712253532
17,champerico,14.3,-91.9167,33.3,61,3,5.15,GT,1712253532
18,papatowai,-46.5619,169.4708,9.54,74,86,4.09,NZ,1712253532
19,sinabang,2.4803,96.3801,27.5,84,100,1.66,ID,1712253532
20,bethel,41.3712,-73.414,7.09,76,100,5.66,US,1712253532
21,anadyr,64.75,177.4833,-12.72,92,40,7.0,RU,1712253532
22,ciudad lazaro cardenas,17.9583,-102.2,26.99,54,6,4.1,MX,1712253532
23,hotan,37.0997,79.9269,14.35,19,100,2.63,CN,1712253532
24,askale,39.9208,40.695,11.64,80,79,2.31,TR,1712253533
25,keflavik,64.0049,-22.5624,2.95,100,100,9.77,IS,1712253533
26,punta arenas,-53.15,-70.9167,10.01,57,0,11.83,CL,1712253533
27,olonkinbyen,70.9221,-8.7187,-5.3,73,80,6.93,SJ,1712253533
28,puerto ayora,-0.7393,-90.3518,28.98,90,99,2.68,EC,1712253533
29,ancud,-41.8697,-73.8203,14.44,75,51,3.55,CL,1712253533
30,ust-nera,64.5667,143.2,-20.45,98,88,1.46,RU,1712253533
31,hamilton,39.1834,-84.5333,7.43,87,100,6.17,US,1712253497
32,bel ombre,-4.6167,55.4167,27.91,89,40,1.03,SC,1712253533
33,hawaiian paradise park,19.5933,-154.9731,22.1,95,75,4.63,US,1712253533
34,talnakh,69.4865,88.3972,-29.89,99,37,0.45,RU,1712253533
35,richards bay,-28.783,32.0377,24.63,83,57,5.71,ZA,1712253533
36,margate,51.3813,1.3862,13.26,72,65,5.36,GB,1712253259
37,wailua homesteads,22.0669,-159.378,23.24,73,75,8.23,US,1712253534
38,thompson,55.7435,-97.8558,3.09,38,75,2.06,CA,1712253534
39,qaqortoq,60.7167,-46.0333,-1.56,75,3,1.65,GL,1712253534
40,boda,4.3189,17.4695,23.71,86,97,1.16,CF,1712253534
41,west island,-12.1568,96.8225,26.99,78,40,6.17,CC,1712253534
42,port elizabeth,-33.918,25.5701,21.17,89,25,9.39,ZA,1712253534
43,reggane,26.7158,0.1714,31.79,10,0,7.7,DZ,1712253534
44,polyarnyy,69.1989,33.4478,-8.33,71,100,4.23,RU,1712253534
45,port alfred,-33.5906,26.891,22.88,70,18,4.33,ZA,1712253534
46,klyuchi,52.2667,79.1667,8.45,58,21,2.76,RU,1712253535
47,nova sintra,14.8667,-24.7167,23.75,77,5,8.72,CV,1712253535
48,blackmans bay,-43.0167,147.3167,8.07,92,8,0.89,AU,1712253535
49,lospalos,-8.5186,127.0025,23.02,95,100,1.39,TL,1712253535
50,bac lieu,9.285,105.7244,27.95,73,32,3.84,VN,1712253535
51,alice springs,-23.7,133.8833,15.68,50,0,2.06,AU,1712253310
52,hampton bays,40.869,-72.5176,6.11,83,100,8.49,US,1712253378
53,meadow lake,34.8014,-106.5436,20.38,26,0,5.67,US,1712253535
54,praia,14.9215,-23.5087,30.3,30,0,7.2,CV,1712253412
55,vila velha,-20.3297,-40.2925,28.97,70,20,6.17,BR,1712253246
56,tamanrasset,22.785,5.5228,30.95,7,0,0.0,DZ,1712253535
57,enewetak,11.3474,162.3373,26.86,77,100,8.46,MH,1712253535
58,ushuaia,-54.8,-68.3,6.81,61,75,13.89,AR,1712253535
59,saint-philippe,-21.3585,55.7679,24.77,91,66,4.69,RE,1712253536
60,college,64.8569,-147.8028,-1.22,76,75,2.57,US,1712253536
61,laguna,38.421,-121.4238,10.98,72,100,6.17,US,1712253451
62,georgetown,5.4112,100.3354,30.96,79,40,5.66,MY,1712253338
63,illizi,26.4833,8.4667,33.89,10,97,7.7,DZ,1712253536
64,puerto natales,-51.7236,-72.4875,11.25,54,75,12.35,CL,1712253536
65,igarapava,-20.0383,-47.7469,31.51,54,28,1.49,BR,1712253536
66,trail,49.0998,-117.7022,9.82,59,99,2.19,CA,1712253448
67,lebu,-37.6167,-73.65,16.27,67,0,4.11,CL,1712253536
68,castillos,-34.1667,-53.8333,21.35,67,31,3.22,UY,1712253536
69,visakhapatnam,17.69,83.2093,28.94,84,20,1.03,IN,1712253536
70,kingston,17.997,-76.7936,31.2,65,20,6.17,JM,1712253536
71,bardai,11.65,7.2333,34.58,21,61,4.3,NG,1712253536
72,kikwit,-5.041,18.8162,27.14,68,90,0.39,CD,1712253537
73,puerto deseado,-47.7503,-65.8938,12.91,40,7,14.56,AR,1712253537
74,sabang,5.8933,95.3214,29.38,70,68,1.85,ID,1712253537
75,tulun,54.5611,100.5792,3.73,93,100,7.15,RU,1712253537
76,avarua,-21.2078,-159.775,25.03,88,57,1.54,CK,1712253537
77,gadzhiyevo,69.2551,33.3362,-9.26,71,100,4.16,RU,1712253537
78,udachny,66.4167,112.4,-16.42,96,92,6.42,RU,1712253537
79,invercargill,-46.4,168.35,10.57,74,92,1.79,NZ,1712253537
80,nar'yan-mar,67.6713,53.087,-15.5,88,100,8.49,RU,1712253537
81,kualakapuas,-3.0091,114.3876,24.7,98,100,0.62,ID,1712253537
82,kone,-21.0595,164.8658,23.96,88,38,1.6,NC,1712253537
83,adrar,20.5022,-10.0711,36.6,8,2,1.46,MR,1712253537
84,kiunga,-6.1219,141.2906,23.68,100,100,0.94,PG,1712253538
85,petropavlovsk-kamchatsky,53.0452,158.6483,-8.08,86,20,5.36,RU,1712253538
86,kapuskasing,49.4169,-82.4331,4.05,65,75,4.12,CA,1712253538
87,carnarvon,-24.8667,113.6333,26.23,47,0,4.44,AU,1712253538
88,ngama,11.7833,17.1667,34.21,8,98,3.45,TD,1712253538
89,el hamma,33.8915,9.7963,19.62,50,0,7.33,TN,1712253538
90,madimba,-10.4,40.3333,26.62,94,40,2.57,TZ,1712253538
91,colonia,50.9333,6.95,15.36,70,20,5.14,DE,1712253353
92,bantogon,6.5333,124.0333,27.27,76,100,1.12,PH,1712253538
93,bamiantong,44.9333,130.5333,2.14,55,4,3.65,CN,1712253538
94,margaret river,-33.95,115.0667,15.93,48,27,3.74,AU,1712253538
95,luanda,-8.8368,13.2343,29.0,83,75,5.14,AO,1712253538
96,nuuk,64.1835,-51.7216,-0.07,79,4,9.39,GL,1712253539
97,gorontalo,0.5412,123.0595,23.93,95,99,1.53,ID,1712253539
98,saint-joseph,-21.3667,55.6167,24.21,90,44,3.98,RE,1712253539
99,utrik,11.2278,169.8474,26.43,79,99,8.66,MH,1712253539
100,bela vista,-22.1089,-56.5211,37.04,31,37,3.39,BR,1712253535
101,susuman,62.7833,148.1667,-25.01,100,59,0.89,RU,1712253510
102,tiksi,71.6872,128.8694,-25.37,99,100,6.54,RU,1712253539
103,cuichapa,18.7667,-96.8667,27.02,32,20,3.13,MX,1712253539
104,laojunmiao,39.8333,97.7333,4.35,31,94,2.52,CN,1712253539
105,kuytun,54.3419,101.5036,2.71,97,100,6.52,RU,1712253539
106,new norfolk,-42.7826,147.0587,8.73,97,7,1.05,AU,1712253539
107,villadossola,46.0732,8.2674,16.01,90,93,1.02,IT,1712253539
108,dingzhou,38.5131,114.9956,7.06,64,37,1.75,CN,1712253540
109,iskateley,67.6803,53.1512,-15.55,88,100,8.49,RU,1712253361
110,vadso,70.0744,29.7487,-7.51,79,40,9.26,NO,1712253540
111,kodiak,57.79,-152.4072,2.73,100,40,0.0,US,1712253540
112,antofagasta,-23.65,-70.4,21.6,77,12,4.01,CL,1712253455
113,smithers,54.7804,-127.1743,-0.82,86,20,1.54,CA,1712253540
114,dunedin,-45.8742,170.5036,9.89,72,91,2.24,NZ,1712253540
115,amungan,15.3652,119.9582,27.09,70,7,1.93,PH,1712253540
116,hermanus,-34.4187,19.2345,17.67,81,80,3.46,ZA,1712253540
117,pisco,-13.7,-76.2167,25.03,73,0,6.69,PE,1712253247
118,finspang,58.7058,15.7674,0.06,93,100,5.14,SE,1712253540
119,fort bragg,35.139,-79.006,15.46,39,100,7.2,US,1712253541
120,selfoss,63.9331,-20.9971,1.69,61,100,5.73,IS,1712253541
121,pak chong,14.708,101.4161,28.92,68,11,1.74,TH,1712253541
122,tidjikja,18.5564,-11.4271,39.55,9,3,1.39,MR,1712253541
123,ribeira grande,38.5167,-28.7,15.22,72,75,9.26,PT,1712253541
124,montfort-sur-meu,48.1333,-1.9667,14.94,82,100,6.69,FR,1712253541
125,cumana,10.4635,-64.1775,28.74,72,16,3.68,VE,1712253541
126,codrington,-38.2667,141.9667,10.13,82,56,3.17,AU,1712253541
127,labrador city,52.9463,-66.9114,-0.05,59,75,5.66,CA,1712253413
128,ola,59.5833,151.2833,-11.03,89,30,3.25,RU,1712253542
129,constantia,44.1833,28.65,13.38,74,92,5.95,RO,1712253542
130,isafjordur,66.0755,-23.124,0.02,51,75,4.12,IS,1712253542
131,vorgashor,67.5833,63.95,-12.33,92,100,4.91,RU,1712253542
132,tsiombe,-25.3,45.4833,23.14,86,28,5.4,MG,1712253542
133,urucara,-2.5364,-57.76,33.17,58,26,0.4,BR,1712253542
134,chunskiy,56.0815,99.6342,2.6,89,100,6.17,RU,1712253542
135,chibougamau,49.9168,-74.3659,1.79,44,75,7.2,CA,1712253542
136,zyryanskoye,56.8306,86.6258,3.33,97,100,4.63,RU,1712253380
137,lamar,33.6668,-95.5836,21.05,32,0,3.09,US,1712253543
138,afaahiti,-17.75,-149.2833,27.93,84,98,5.59,PF,1712253543
139,gornozavodsk,58.3758,58.3211,5.66,92,40,4.43,RU,1712253276
140,acapulco de juarez,16.8634,-99.8901,25.34,60,5,3.95,MX,1712253430
141,attapeu,14.8,106.8333,27.74,57,6,0.57,LA,1712253543
142,atafu village,-8.5421,-172.5159,29.25,75,68,5.16,TK,1712253543
143,inongo,-1.95,18.2667,27.0,71,98,1.11,CD,1712253543
144,ndibene dahra,15.3338,-15.4766,44.99,8,82,5.26,SN,1712253543
145,vilyuchinsk,52.9306,158.4028,-7.26,83,6,3.94,RU,1712253544
146,bredasdorp,-34.5322,20.0403,16.91,73,83,5.28,ZA,1712253544
147,horta,38.5333,-28.6333,14.8,74,75,9.26,PT,1712253544
148,paka,4.6374,103.4368,23.96,94,13,0.0,MY,1712253544
149,mirny,62.5353,113.9611,-16.54,83,37,3.58,RU,1712253544
150,dudinka,69.4058,86.1778,-29.62,97,10,3.13,RU,1712253544
151,energodar,47.4987,34.6574,11.74,65,91,5.02,UA,1712253544
152,reguiba,33.5639,6.7033,28.03,23,0,7.2,DZ,1712253544
153,london,51.5085,-0.1257,14.58,78,97,4.47,GB,1712253329
154,grande prairie,55.1667,-118.8027,-0.9,69,100,2.06,CA,1712253451
155,arteche,12.2645,125.4048,25.68,90,64,2.94,PH,1712253545
156,kotido,2.9806,34.1331,23.48,68,100,1.6,UG,1712253545
157,misliyah,17.4599,42.5572,30.52,51,40,1.56,SA,1712253545
158,saddiqabad,28.3062,70.1307,28.35,16,63,2.55,PK,1712253545
159,taltal,-25.4,-70.4833,20.62,72,15,2.87,CL,1712253545
160,east london,-33.0153,27.9116,24.52,69,0,2.57,ZA,1712253545
161,novodvinsk,64.4165,40.8122,-9.14,89,100,3.58,RU,1712253545
162,prince rupert,54.3161,-130.3201,5.83,85,75,4.63,CA,1712253545
163,demyansk,57.643,32.466,-1.79,75,96,2.07,RU,1712253545
164,plouzane,48.3833,-4.6167,13.18,95,100,10.8,FR,1712253546
165,brookings,44.3114,-96.7984,10.03,31,0,7.2,US,1712253417
166,salalah,17.0151,54.0924,26.54,70,92,1.45,OM,1712253546
167,sitangkai,4.6628,119.3928,28.16,78,86,2.1,PH,1712253546
168,mount pearl,47.5166,-52.7813,4.62,96,100,6.69,CA,1712253546
169,rosarito,32.3333,-117.0333,17.52,70,89,3.46,MX,1712253283
170,harper,4.375,-7.7169,29.27,77,54,4.77,LR,1712253546
171,chenzhou,25.8,113.0333,14.1,98,100,1.46,CN,1712253546
172,touros,-5.1989,-35.4608,29.61,66,100,3.29,BR,1712253509
173,juneau,58.3019,-134.4197,4.12,95,75,2.57,US,1712253278
174,stanley,54.868,-1.6985,5.77,84,40,3.6,GB,1712253547
175,koungheul,13.9833,-14.8,41.73,12,22,3.1,SN,1712253547
176,rute,37.3269,-4.3683,18.92,54,28,1.59,ES,1712253547
177,las veredas,23.1388,-109.7075,27.76,44,14,0.89,MX,1712253339
178,mount gambier,-37.8333,140.7667,9.64,85,21,2.04,AU,1712253547
179,independence,39.0911,-94.4155,13.53,32,0,7.72,US,1712253393
180,attendorn,51.1265,7.9033,12.19,91,73,4.97,DE,1712253547
181,sitka,57.0531,-135.33,3.94,81,40,2.06,US,1712253363
182,basco,20.4487,121.9702,27.2,88,3,7.96,PH,1712253548
183,myanaung,18.2833,95.3167,30.01,52,1,0.88,MM,1712253548
184,saudarkrokur,65.7461,-19.6394,-2.56,73,84,0.77,IS,1712253548
185,arraial do cabo,-22.9661,-42.0278,28.98,70,20,5.14,BR,1712253336
186,curup,-3.4667,102.5333,21.78,98,100,0.56,ID,1712253548
187,tarfaya,27.9358,-12.9218,19.15,86,83,8.15,MA,1712253548
188,mingshui,36.7167,117.5,9.25,37,1,2.24,CN,1712253548
189,egilsstadir,65.2653,-14.3948,-4.05,63,75,4.63,IS,1712253548
190,wewak,-3.5534,143.6268,25.83,85,100,1.82,PG,1712253549
191,port lavaca,28.615,-96.6261,28.5,33,0,4.12,US,1712253481
192,oranjemund,-28.55,16.4333,16.57,93,40,7.62,NA,1712253549
193,la'ie,21.6477,-157.9253,23.98,76,35,4.02,US,1712253549
194,midoun,33.8081,10.9923,19.92,69,58,5.74,TN,1712253549
195,puerto baquerizo moreno,-0.9,-89.6,29.55,66,20,4.63,EC,1712253549
196,port mathurin,-19.6833,63.4167,26.94,81,97,8.4,MU,1712253549
197,alofi,-19.0595,-169.9187,24.94,94,75,4.63,NU,1712253549
198,nuku'alofa,-21.1333,-175.2,24.19,78,20,3.09,TO,1712253365
199,cozumel,20.5083,-86.9458,29.04,58,40,5.14,MX,1712253267
200,aykhal,66.0,111.5,-20.86,97,100,13.89,RU,1712253550
201,cerignola,41.264,15.9005,16.57,70,12,2.18,IT,1712253550
202,dryden,49.7833,-92.7503,5.16,48,0,3.6,CA,1712253550
203,beau vallon,-20.4189,57.6953,26.13,94,40,2.06,MU,1712253550
204,ostersund,63.1792,14.6357,-3.75,58,20,9.26,SE,1712253471
205,yellowknife,62.456,-114.3525,-8.1,68,20,0.0,CA,1712253550
206,amlapura,-8.45,115.6167,24.25,90,100,1.46,ID,1712253550
207,loango,-4.6719,11.8312,26.28,86,84,0.71,CG,1712253550
208,hadibu,12.65,54.0333,26.98,75,9,3.94,YE,1712253551
209,howrah,22.5892,88.3103,29.0,89,75,5.66,IN,1712253551
210,calingasta,-31.3308,-69.4078,27.5,7,0,0.39,AR,1712253551
211,tura,25.5198,90.2201,25.0,46,21,3.5,IN,1712253551
212,taulaga,-11.0553,-171.0883,29.43,74,54,3.77,AS,1712253551
213,chonchi,-42.6128,-73.8092,16.18,60,78,1.62,CL,1712253551
214,pilar,-9.5972,-35.9567,24.96,69,81,3.7,BR,1712253541
215,rongelap,11.1635,166.8941,26.91,76,100,9.03,MH,1712253551
216,airuk,7.2772,168.8203,27.51,78,13,8.09,MH,1712253551
217,de queen,34.0379,-94.3413,22.25,27,0,4.12,US,1712253552
218,caribou,46.8606,-68.012,1.26,76,100,9.77,US,1712253552
219,east aurora,42.7678,-78.6134,4.89,93,95,1.34,US,1712253290
220,jamestown,42.097,-79.2353,3.77,98,100,4.12,US,1712253505
221,palikir - national government center,6.9248,158.1611,24.41,94,75,2.06,FM,1712253552
222,lata,40.1629,-8.3327,17.26,56,100,3.2,PT,1712253552
223,garoowe,8.4054,48.4845,26.1,65,92,9.11,SO,1712253255
224,tolanaro,-25.0319,46.9987,25.04,88,20,7.2,MG,1712253552
225,tondano,1.3038,124.9112,21.05,98,100,0.46,ID,1712253552
226,nova olimpia,-14.7972,-57.2881,33.78,52,42,1.03,BR,1712253552
227,makhambet,47.6667,51.5833,12.13,70,93,3.02,KZ,1712253553
228,khandyga,62.6667,135.6,-6.76,97,97,2.6,RU,1712253553
229,ciutadella,40.0011,3.8414,17.45,75,2,5.02,ES,1712253553
230,sharm el-sheikh,27.8518,34.305,30.08,28,0,3.09,EG,1712253399
231,tughyl,47.7252,84.2063,2.18,74,29,1.04,KZ,1712253553
232,dalandzadgad,43.5708,104.425,6.79,45,68,1.81,MN,1712253553
233,suva,-18.1416,178.4415,25.71,94,75,1.54,FJ,1712253290
234,usinsk,65.9939,57.5281,-3.85,97,100,4.47,RU,1712253553
235,kijang,35.2442,129.2139,10.85,65,100,5.84,KR,1712253553
236,ulladulla,-35.35,150.4667,17.09,82,100,5.42,AU,1712253554
237,mayqayyng,51.4625,75.7986,9.56,46,1,1.51,KZ,1712253554
238,antsiranana,-12.2787,49.2917,26.65,83,73,6.53,MG,1712253554
239,ilhabela,-23.7781,-45.3581,27.23,74,5,2.04,BR,1712253554
240,alghero,40.5589,8.3181,16.05,77,0,3.6,IT,1712253280
241,nova vicosa,-17.8919,-39.3719,28.58,72,21,3.76,BR,1712253554
242,ilulissat,69.2167,-51.1,-5.88,90,100,1.82,GL,1712253554
243,sarupathar,26.1984,93.8094,20.42,81,35,1.71,IN,1712253554
244,sisimiut,66.9395,-53.6735,-2.74,82,35,5.64,GL,1712253554
245,mambolo,8.9231,-13.0444,30.16,66,16,4.67,SL,1712253554
246,daru,-9.0763,143.2092,25.69,90,94,2.36,PG,1712253555
247,buka,40.8108,69.1986,14.7,55,99,3.67,UZ,1712253555
248,spring creek,40.7266,-115.5859,14.61,41,63,5.81,US,1712253555
249,okhotsk,59.3833,143.3,-11.1,82,27,4.45,RU,1712253555
250,san patricio,28.017,-97.5169,30.05,22,0,2.56,US,1712253555
251,porto novo,6.4965,2.6036,31.9,73,56,3.86,BJ,1712253555
252,vila franca do campo,37.7167,-25.4333,18.27,99,100,8.82,PT,1712253555
253,chakari,-18.0629,29.8925,27.16,37,95,3.16,ZW,1712253555
254,port lincoln,-34.7333,135.8667,14.15,75,17,5.94,AU,1712253555
255,kasongo-lunda,-6.4667,16.8167,23.21,94,97,0.06,CD,1712253556
256,yuto,-23.6434,-64.4719,29.13,74,77,0.89,AR,1712253556
257,xining,36.6167,101.7667,7.45,49,100,4.46,CN,1712253556
258,ghat,24.9647,10.1728,29.67,9,90,6.13,LY,1712253556
259,hawera,-39.5917,174.2833,13.46,84,45,2.55,NZ,1712253556
260,kalanchak,46.2562,33.2907,10.67,71,84,3.95,UA,1712253556
261,vernon,50.2581,-119.2691,8.34,50,100,2.06,CA,1712253311
262,knightdale,35.7877,-78.4806,14.56,47,93,8.61,US,1712253556
263,acarau,-2.8856,-40.12,29.29,72,64,3.89,BR,1712253556
264,ulsan,35.5372,129.3167,9.33,76,100,2.31,KR,1712253556
265,mongo,12.1844,18.693,34.38,9,83,3.06,TD,1712253557
266,khorixas,-20.3667,14.9667,24.71,57,33,5.58,NA,1712253557
267,beyneu,45.3167,55.2,16.92,30,100,6.09,KZ,1712253557
268,la passe,45.5549,-0.8967,19.13,78,99,4.22,FR,1712253557
269,kerema,-7.9631,145.7785,25.81,87,100,1.5,PG,1712253557
270,muli,2.9167,73.5667,28.3,74,85,1.8,MV,1712253557
271,sekong,-6.3996,106.0252,24.57,98,100,1.16,ID,1712253557
272,tazacorte,28.629,-17.9293,22.54,80,0,3.6,ES,1712253557
273,hermosillo,29.0667,-110.9667,30.16,19,0,2.87,MX,1712253553
274,wynyard,-41.0,145.7167,9.57,80,35,2.18,AU,1712253558
275,leer,53.2316,7.461,11.67,89,94,4.72,DE,1712253558
276,dubna,56.7333,37.1667,-0.43,75,100,2.49,RU,1712253558
277,lihue,21.9789,-159.3672,23.58,73,75,8.23,US,1712253428
278,kununurra,-15.7667,128.7333,24.99,53,76,3.09,AU,1712253487
279,nemuro,43.3236,145.575,1.29,91,99,3.27,JP,1712253558
280,assare,-6.8744,-39.875,30.74,51,71,1.68,BR,1712253558
281,mata-utu,-13.2816,-176.1745,28.84,76,100,5.95,WF,1712253558
282,penzance,50.1186,-5.5371,12.38,94,100,11.61,GB,1712253558
283,tupa,-21.9347,-50.5136,31.54,43,47,1.71,BR,1712253346
284,sambava,-14.2667,50.1667,26.21,88,67,6.16,MG,1712253559
285,kimbe,-5.5502,150.1429,24.59,90,94,1.64,PG,1712253559
286,merizo village,13.2658,144.6691,26.85,85,98,8.81,GU,1712253559
287,whitehorse,60.7161,-135.0538,1.17,53,0,1.54,CA,1712253292
288,carutapera,-1.195,-46.02,29.44,69,85,3.51,BR,1712253559
289,turtas,58.9417,69.1325,7.62,91,68,3.95,RU,1712253559
290,vorkuta,67.5,64.0,-12.16,92,100,4.47,RU,1712253502
291,kasane,-17.8167,25.15,28.23,36,99,2.34,BW,1712253560
292,chhor,25.5167,69.7667,29.88,21,99,6.95,PK,1712253560
293,banfora,10.6333,-4.7667,37.77,21,38,3.02,BF,1712253560
294,sungai raya,0.7,108.9,26.64,88,100,2.99,ID,1712253560
295,pastos bons,-6.6017,-44.0767,30.05,67,44,2.04,BR,1712253560
296,berdigestyakh,62.0989,126.6992,-5.45,90,28,3.84,RU,1712253560
297,bengkulu,-3.8004,102.2655,25.49,92,100,2.01,ID,1712253560
298,yoloten,37.2989,62.3597,19.52,27,7,3.99,TM,1712253560
299,cabo san lucas,22.8909,-109.9124,28.12,48,37,3.7,MX,1712253461
300,byelaazyorsk,52.4731,25.1784,7.34,69,92,3.15,BY,1712253561
301,minas de marcona,-15.2119,-75.1103,23.48,53,33,7.74,PE,1712253561
302,longyearbyen,78.2186,15.6401,-9.09,86,75,8.75,SJ,1712253400
303,ebebiyin,2.1511,11.3353,21.67,97,100,2.05,GQ,1712253561
304,sao sebastiao do paraiso,-20.9169,-46.9914,26.87,67,25,1.02,BR,1712253377
305,wagar,16.1525,36.2032,34.73,14,47,1.63,SD,1712253561
306,juan griego,11.0817,-63.9655,31.29,61,15,6.54,VE,1712253561
307,ilha de mocambique,-15.0342,40.7358,28.66,79,8,3.66,MZ,1712253561
308,hobyo,5.3505,48.5268,28.96,76,31,7.39,SO,1712253561
309,calilegua,-23.7737,-64.77,27.3,66,65,2.63,AR,1712253561
310,fortaleza,-3.7227,-38.5247,30.6,91,75,3.09,BR,1712253493
311,shumikha,55.2261,63.2961,3.42,97,21,4.57,RU,1712253562
312,atar,20.5169,-13.0499,38.67,6,1,3.84,MR,1712253562
313,paradip garh,20.3167,86.6167,28.01,76,16,7.45,IN,1712253562
314,aoulef,26.9667,1.0833,30.83,10,0,6.85,DZ,1712253562
315,nantucket,41.2835,-70.0995,8.08,97,100,13.89,US,1712253562
316,port douglas,-16.4833,145.4667,25.51,84,80,1.12,AU,1712253562
317,bataipora,-22.2953,-53.2711,34.19,35,74,3.13,BR,1712253562
318,tazovsky,67.4667,78.7,-24.04,99,60,2.99,RU,1712253563
319,padampur,29.6833,73.6167,26.22,20,93,5.59,IN,1712253563
320,formosa do rio preto,-11.0483,-45.1931,23.9,93,91,0.81,BR,1712253563
321,gisborne,-38.6533,178.0042,16.0,84,42,2.39,NZ,1712253563
322,marang,5.2056,103.2059,26.95,81,3,1.35,MY,1712253563
323,san carlos,9.6612,-68.5827,36.77,32,100,1.64,VE,1712253563
324,al kharijah,25.4514,30.5464,30.0,16,21,4.55,EG,1712253563
325,fort mcmurray,56.7268,-111.381,-0.23,69,100,4.12,CA,1712253509
326,severo-yeniseyskiy,60.3725,93.0408,-16.9,99,90,1.79,RU,1712253563
327,birsk,55.4211,55.5428,5.57,96,32,4.7,RU,1712253563
328,fortuna,40.5982,-124.1573,9.81,78,100,0.45,US,1712253563
329,crane,31.3974,-102.3501,24.86,12,0,2.87,US,1712253564
330,ulsteinvik,62.3432,5.8487,4.95,79,100,3.58,NO,1712253564
331,qamdo,31.1667,97.2333,2.44,48,67,2.9,CN,1712253564
332,kapa'a,22.0752,-159.319,23.99,73,75,8.23,US,1712253564
333,sao vicente,-23.9631,-46.3919,37.37,70,0,3.6,BR,1712253564
334,cam ranh,11.9214,109.1591,28.98,74,40,2.57,VN,1712253564
335,bonthe,7.5264,-12.505,29.04,71,85,5.62,SL,1712253564
336,axim,4.8699,-2.2405,29.05,77,28,3.79,GH,1712253564
337,kenai,60.5544,-151.2583,-1.06,97,100,2.57,US,1712253564
338,cidreira,-30.1811,-50.2056,24.9,85,95,2.8,BR,1712253565
339,savanna-la-mar,18.219,-78.1332,31.07,57,55,5.18,JM,1712253565
340,argo,37.6333,22.7333,17.1,57,37,0.82,GR,1712253565
341,lompoc,34.6391,-120.4579,14.18,65,100,3.13,US,1712253565
342,williams lake,52.1415,-122.1445,5.59,49,20,5.14,CA,1712253312
343,agat village,13.3886,144.6585,27.06,81,0,4.63,GU,1712253565
344,natal,-5.795,-35.2094,33.12,62,20,6.17,BR,1712253363
345,kiama,-34.6833,150.8667,19.76,88,100,1.34,AU,1712253366
346,pachino,36.7186,15.0907,15.47,63,0,1.97,IT,1712253565
347,ingeniero jacobacci,-41.3427,-69.5448,14.15,43,100,12.23,AR,1712253565
348,mitu,1.1983,-70.1733,31.25,62,92,0.71,CO,1712253566
349,flying fish cove,-10.4217,105.6791,25.82,94,75,2.57,CX,1712253566
350,digoin,46.4812,3.9795,19.05,55,0,1.03,FR,1712253566
351,cestos city,5.46,-9.5828,28.92,77,35,4.15,LR,1712253566
352,queenstown,-31.8976,26.8753,20.3,44,52,3.39,ZA,1712253566
353,hasaki,35.7333,140.8333,14.05,65,100,9.65,JP,1712253566
354,kyelang,32.5833,77.0333,-11.22,93,99,2.22,IN,1712253566
355,punta del este,-34.9667,-54.95,23.06,68,20,2.57,UY,1712253566
356,san fernando de monte cristi,19.8667,-71.65,28.71,58,2,6.35,DO,1712253566
357,puerto armuelles,8.2833,-82.8667,30.99,75,51,0.45,PA,1712253442
358,laminusa,5.5549,120.9136,27.97,75,97,1.12,PH,1712253567
359,kavieng,-2.5744,150.7967,27.65,82,88,2.8,PG,1712253567
360,novo aripuana,-5.1206,-60.3797,33.76,55,55,1.24,BR,1712253567
361,nogliki,51.8333,143.1667,-6.48,90,83,0.89,RU,1712253567
362,le port,-20.9373,55.2919,25.0,85,35,1.26,RE,1712253463
363,khanpur,28.6453,70.6567,27.3,18,55,2.55,PK,1712253567
364,remire-montjoly,4.9167,-52.2667,31.02,74,75,6.17,GF,1712253567
365,aioun,16.6614,-9.6149,42.07,8,58,2.2,MR,1712253567
366,ta`u,-14.2336,-169.5144,28.36,81,83,5.37,AS,1712253567
367,lashkar gah,31.5938,64.3716,20.61,16,89,2.17,AF,1712253568
368,terenozek,45.05,64.9833,13.47,49,99,3.91,KZ,1712253568
369,tralee,52.2704,-9.7026,10.08,97,100,4.53,IE,1712253568
370,boves,44.332,7.5514,15.11,80,92,0.52,IT,1712253568
371,itambe,-15.245,-40.6244,27.02,83,98,1.55,BR,1712253338
372,howard springs,-12.497,131.047,26.95,94,100,2.2,AU,1712253568
373,omutinskiy,56.4745,67.6709,6.65,94,36,4.42,RU,1712253568
374,zahedan,29.4963,60.8629,17.95,20,20,2.06,IR,1712253568
375,stornoway,58.2093,-6.3865,5.98,70,75,6.69,GB,1712253568
376,guatire,10.4762,-66.5427,35.94,36,28,2.41,VE,1712253569
377,santana,-0.0583,-51.1817,27.1,94,75,2.57,BR,1712253546
378,el granada,37.5027,-122.4694,9.65,84,75,4.63,US,1712253569
379,vanino,49.0869,140.2543,0.51,98,90,1.09,RU,1712253569
380,concepcion,-36.827,-73.0498,18.89,55,0,5.66,CL,1712253569
381,midelt,32.6852,-4.7451,23.49,19,41,4.73,MA,1712253569
382,badger,64.8,-147.5333,-1.27,73,75,2.57,US,1712253569
383,tianpeng,30.9866,103.9393,15.26,93,100,1.53,CN,1712253570
384,florida ridge,27.5803,-80.3867,27.78,44,0,5.66,US,1712253570
385,timimoun,29.2639,0.231,31.21,9,0,7.2,DZ,1712253570
386,carrboro,35.9101,-79.0753,14.2,46,70,1.34,US,1712253570
387,santa elena de uairen,4.6167,-61.1333,29.29,40,56,4.29,VE,1712253570
388,pasuquin,18.3328,120.6177,26.73,80,14,2.36,PH,1712253570
389,portland,45.5234,-122.6762,8.33,80,100,2.57,US,1712253290
390,sarmasu,46.75,24.1667,11.78,89,98,1.46,RO,1712253570
391,urangan,-25.3,152.9,23.44,92,3,1.79,AU,1712253570
392,ar rass,25.8694,43.4973,25.3,15,0,3.82,SA,1712253449
393,konarka,19.9,86.1167,28.22,82,12,8.64,IN,1712253571
394,motygino,58.1831,94.7592,0.44,100,100,1.34,RU,1712253571
395,forster,-32.1667,152.5167,17.94,100,100,3.14,AU,1712253571
396,dyatlovo,53.4631,25.4068,7.06,64,70,3.23,BY,1712253571
397,dushanbe,38.5577,68.7797,12.9,58,20,1.0,TJ,1712253571
398,ketchikan,55.3422,-131.6461,6.3,75,40,2.57,US,1712253571
399,kailua-kona,19.6406,-155.9956,24.72,85,40,2.06,US,1712253441
400,lepsy,46.235,78.9456,7.96,45,3,4.57,KZ,1712253571
401,metkovic,43.0542,17.6483,17.26,77,4,0.63,HR,1712253571
402,green river,41.5286,-109.4662,16.66,29,35,4.47,US,1712253571
403,farsala,39.2947,22.3847,15.93,60,1,2.82,GR,1712253572
404,tyukhtet,56.5389,89.3011,3.82,97,100,5.47,RU,1712253572
405,trujillo,-8.116,-79.03,22.98,78,79,5.66,PE,1712253529
406,sansanne-mango,10.3592,0.4708,39.46,19,41,2.09,TG,1712253572
407,jinhua,29.1078,119.6547,9.84,89,100,1.17,CN,1712253572
408,xiva,41.3783,60.3639,13.99,17,48,3.7,UZ,1712253572
409,hastings,50.8552,0.5729,13.88,89,94,8.96,GB,1712253572
410,ustka,54.5805,16.8619,8.69,88,99,3.51,PL,1712253572
411,onguday,50.75,86.15,-0.4,87,49,1.28,RU,1712253572
412,pangody,65.85,74.4859,-12.51,95,98,5.91,RU,1712253572
413,inderbor,48.55,51.7833,14.64,42,99,7.11,KZ,1712253573
414,santa marta,11.2408,-74.199,32.16,70,20,3.09,CO,1712253309
415,buedu,8.2803,-10.3719,29.64,61,61,1.89,SL,1712253573
416,strezhevoy,60.7333,77.5889,0.76,99,100,2.96,RU,1712253573
417,sibay,52.7181,58.6658,5.68,90,78,2.68,RU,1712253573
418,bodo,67.28,14.405,-2.98,50,0,6.17,NO,1712253573
419,alto araguaia,-17.3147,-53.2153,28.72,64,31,1.41,BR,1712253573
420,bathurst,-33.4166,149.5806,13.87,99,100,6.15,AU,1712253573
421,kasempa,-13.4584,25.8338,22.91,61,87,2.32,ZM,1712253573
422,al bawiti,28.3492,28.8659,25.31,15,0,4.93,EG,1712253573
423,viedma,-40.8135,-62.9967,23.44,23,2,8.87,AR,1712253573
424,mburucuya,-28.0454,-58.2245,29.53,65,57,4.41,AR,1712253574
425,yangambi,0.8102,24.4336,25.14,75,55,1.41,CD,1712253556
426,val-de-reuil,49.2738,1.2102,15.95,82,100,6.17,FR,1712253574
427,phalia,32.4297,73.5775,22.85,30,100,3.17,PK,1712253574
428,parapat,2.663,98.9349,21.04,91,100,0.31,ID,1712253574
429,montepuez,-13.1256,38.9997,22.25,95,90,1.82,MZ,1712253574
430,tegueste,28.5167,-16.3167,20.64,49,0,5.66,ES,1712253574
431,zest'aponi,42.11,43.0525,11.06,68,54,1.9,GE,1712253574
432,puerto aysen,-45.4,-72.7,10.22,97,100,2.36,CL,1712253574
433,poshekhon'ye,58.4993,39.1353,-0.44,71,100,3.66,RU,1712253575
434,sudlohn,51.9333,6.8667,13.63,76,58,1.34,DE,1712253575
435,kindu,-2.95,25.95,23.51,92,92,3.37,CD,1712253575
436,devils lake,48.1128,-98.8651,9.06,32,0,2.24,US,1712253504
437,new plymouth,-39.0667,174.0833,13.78,83,19,3.48,NZ,1712253536
438,dame-marie,18.5667,-74.4167,30.43,55,0,1.03,HT,1712253575
439,thinadhoo,0.5333,72.9333,28.03,76,100,4.14,MV,1712253575
440,greymouth,-42.4667,171.2,11.23,86,100,2.19,NZ,1712253575
441,bairnsdale,-37.8333,147.6167,14.47,87,99,1.2,AU,1712253575
442,pathum thani,14.0833,100.6,29.99,80,20,3.09,TH,1712253575
443,karkira,36.9292,6.5856,14.23,75,10,1.45,DZ,1712253575
444,tindouf,27.6711,-8.1474,34.25,9,9,7.2,DZ,1712253576
445,yenagoa,4.9247,6.2642,28.08,76,100,3.77,NG,1712253576
446,bulgan,48.8125,103.5347,3.15,56,31,1.9,MN,1712253576
447,karratha,-20.7377,116.8463,28.19,55,42,3.63,AU,1712253576
448,st. john's,47.5649,-52.7093,5.08,96,100,8.49,CA,1712253458
449,kolonia town,6.964,158.206,25.0,94,75,2.06,FM,1712253576
450,jilemnice,50.6089,15.5065,12.37,90,100,5.11,CZ,1712253576
451,piton saint-leu,-21.2196,55.3151,23.06,88,0,1.54,RE,1712253576
452,fale old settlement,-9.3852,-171.2468,29.1,76,12,4.99,TK,1712253576
453,quellon,-43.1167,-73.6167,14.28,71,85,0.77,CL,1712253577
454,banlung,13.7468,107.0045,27.08,52,16,1.8,KH,1712253577
455,huaicheng,23.9051,112.1931,21.08,92,100,1.31,CN,1712253577
456,rufino,-34.2683,-62.7126,24.91,29,3,4.28,AR,1712253513
457,murzuq,25.9155,13.9184,26.72,7,41,5.22,LY,1712253577
458,cockburn town,21.4612,-71.1419,25.77,79,5,5.73,TC,1712253525
459,urumqi,43.801,87.6005,4.53,81,0,2.0,CN,1712253577
460,gottingen,51.5333,9.9333,12.76,85,100,6.56,DE,1712253577
461,jiazi,22.8779,116.067,23.89,90,92,1.83,CN,1712253577
462,rio grande,-32.035,-52.0986,24.06,94,100,1.33,BR,1712253577
463,mocimboa,-11.3167,40.35,25.93,91,44,2.68,MZ,1712253578
464,mabaruma,8.2,-59.7833,31.4,57,59,3.44,GY,1712253578
465,port-gentil,-0.7193,8.7815,28.3,79,100,5.52,GA,1712253578
466,tchintabaraden,15.8969,5.7985,35.25,8,0,4.67,NE,1712253578
467,parung,-6.4214,106.7331,27.54,83,100,2.06,ID,1712253578
468,kirando,-7.4167,30.6,23.45,83,35,1.73,TZ,1712253578
469,le puy-en-velay,45.0437,3.8852,12.19,85,98,3.28,FR,1712253578
470,katsuren-haebaru,26.3369,127.8719,25.43,94,0,2.06,JP,1712253578
471,hithadhoo,-0.6,73.0833,27.09,82,99,4.43,MV,1712253578
472,kudahuvadhoo,2.6708,72.8944,28.26,73,95,2.14,MV,1712253578
473,franklin,39.9667,-83.0166,8.76,73,75,7.2,US,1712253346
474,montmagny,48.9734,2.3469,17.38,64,100,8.75,FR,1712253579
475,westport,41.1415,-73.3579,7.94,70,99,4.47,US,1712253579
476,kill devil hills,36.0307,-75.676,16.0,53,100,4.63,US,1712253579
477,tuy hoa,13.0833,109.3,23.3,96,29,1.34,VN,1712253579
478,noumea,-22.2763,166.4572,26.67,99,56,3.85,NC,1712253310
479,yarmouth,41.7057,-70.2286,8.12,96,100,6.17,US,1712253579
480,zhangye,38.9342,100.4517,10.7,33,98,2.3,CN,1712253579
481,kayangel,8.0823,134.7173,28.01,77,100,8.69,PW,1712253579
482,noosa heads,-26.3833,153.15,21.85,83,23,1.88,AU,1712253579
483,partenit,44.578,34.3446,10.91,68,100,0.78,UA,1712253579
484,east ballina,-28.8667,153.5833,19.33,87,81,0.77,AU,1712253579
485,sechura,-5.5569,-80.8222,28.06,58,70,3.8,PE,1712253579
486,kruisfontein,-34.0033,24.7314,19.94,72,56,9.45,ZA,1712253579
487,pingzhuang,42.0372,119.2889,4.79,52,76,1.77,CN,1712253580
488,dimitrovgrad,54.2139,49.6184,8.48,78,100,1.97,RU,1712253580
489,newman,37.3138,-121.0208,13.19,71,66,6.26,US,1712253346
490,calama,-22.4667,-68.9333,24.27,19,0,8.23,CL,1712253580
491,zilupe,56.3862,28.1217,0.73,80,97,2.19,LV,1712253580
492,cape may court house,39.0826,-74.8238,14.44,71,20,5.66,US,1712253580
493,dali,25.7,100.1833,12.79,62,3,2.38,CN,1712253580
494,nekrasovskoye,57.6766,40.3657,1.11,69,100,5.0,RU,1712253580
495,newnham,-41.3833,147.1333,8.7,93,40,2.57,AU,1712253580
496,miyazaki,31.9111,131.4239,17.97,72,100,3.6,JP,1712253493
497,urengoy,65.9667,78.3667,-17.73,96,98,3.27,RU,1712253580
498,mweka,-4.85,21.5667,24.35,78,95,0.37,CD,1712253580
499,namibe,-15.1961,12.1522,24.06,65,3,6.49,AO,1712253581
500,nema,57.5067,50.5011,5.37,92,94,3.39,RU,1712253581
501,malango,-2.9627,119.9001,20.41,97,100,0.77,ID,1712253581
502,hell-ville,-13.4,48.2667,28.85,75,50,0.8,MG,1712253581
503,palmer,42.1584,-72.3287,3.92,83,100,2.68,US,1712253300
504,raybag,16.4833,74.7833,29.07,33,59,4.95,IN,1712253581
505,kittila,67.6647,24.8936,-6.92,42,0,1.54,FI,1712253581
506,conception bay south,47.4999,-52.9981,4.95,97,100,4.12,CA,1712253581
507,coquimbo,-29.9533,-71.3436,16.85,88,75,5.14,CL,1712253437
508,sittwe,20.15,92.9,26.19,90,8,2.55,MM,1712253581
509,kangal,39.2335,37.3911,14.74,37,97,2.49,TR,1712253581
510,ishinomaki,38.4167,141.3,5.59,73,56,6.43,JP,1712253582
511,kayyerkan,69.3786,87.7439,-29.84,99,63,1.02,RU,1712253582
512,extrema,-22.8547,-46.3183,28.87,46,0,2.25,BR,1712253303
513,porto recanati,43.4365,13.6613,16.68,68,68,4.77,IT,1712253582
514,swakopmund,-22.6833,14.5333,19.47,81,31,4.55,NA,1712253582
515,patnanungan,14.7833,122.1833,26.63,83,31,5.98,PH,1712253582
516,bodaybo,57.8506,114.1933,-1.37,92,100,5.51,RU,1712253582
517,coruripe,-10.1256,-36.1756,29.56,70,67,4.72,BR,1712253582
518,pemangkat,1.1667,108.9667,26.57,87,100,2.31,ID,1712253582
519,tofol,5.3248,163.0078,27.69,79,69,8.16,FM,1712253582
520,birao,10.2849,22.7882,31.7,40,91,3.09,CF,1712253582
521,adrasmon,40.6472,69.9856,8.55,59,99,0.79,TJ,1712253582
522,meleuz,52.9667,55.9167,1.93,97,100,1.98,RU,1712253583
523,bikenibeu village,1.3673,173.1241,26.98,89,40,4.12,KI,1712253583
524,zunyi,27.6867,106.9072,12.6,90,100,2.46,CN,1712253583
525,bima,-8.4667,118.7167,24.29,95,100,0.94,ID,1712253583
526,borogontsy,62.6683,131.1683,-9.28,96,86,2.47,RU,1712253583
527,marrakesh,31.6315,-8.0083,32.04,25,0,4.63,MA,1712253303
528,morant bay,17.8815,-76.4093,30.79,66,31,4.23,JM,1712253583
529,corn island,12.1694,-83.0418,28.0,67,1,3.42,NI,1712253583
530,ragay,13.8183,122.7923,25.02,93,61,2.92,PH,1712253583
531,arno,60.1167,18.6333,-1.23,61,100,6.33,SE,1712253583
532,canguaretama,-6.38,-35.1289,28.8,72,96,3.75,BR,1712253491
533,ambatolampy,-19.3833,47.4167,14.74,98,61,1.73,MG,1712253583
534,salinopolis,-0.6136,-47.3561,29.32,72,79,5.04,BR,1712253584
535,retreat,38.8245,-85.8533,6.85,71,100,4.92,US,1712253584
536,faya-largeau,17.9257,19.1043,32.87,8,100,5.14,TD,1712253584
537,hammerfest,70.6634,23.6821,-3.75,74,40,4.12,NO,1712253505
538,ad dilam,23.9915,47.1627,27.23,18,0,2.23,SA,1712253584
539,tosontsengel,48.7567,98.2839,-7.22,98,64,1.78,MN,1712253584
540,west end,26.6833,-78.9667,23.99,61,100,6.68,BS,1712253584
541,mao,39.8885,4.2658,17.31,82,0,4.63,ES,1712253584
542,mohr,54.3528,9.7167,11.08,89,100,8.75,DE,1712253584
543,khark,29.2614,50.3306,22.91,68,0,4.02,IR,1712253584
544,kinkala,-4.3614,14.7644,23.79,91,97,1.15,CG,1712253584
545,kangding,30.0513,101.9603,5.49,98,100,0.8,CN,1712253585
546,shambu,9.5667,37.1,17.27,45,82,0.82,ET,1712253585
547,cromer,52.9312,1.2989,11.15,89,91,2.18,GB,1712253585
548,bodden town,19.2833,-81.25,31.0,62,20,5.66,KY,1712253585
549,guaruja,-23.9931,-46.2564,28.92,70,0,3.6,BR,1712253563
550,kodinsk,58.6881,99.1844,-9.2,98,98,1.24,RU,1712253585
551,taunsa,30.7048,70.6505,26.37,24,28,3.08,PK,1712253585
552,geraldton,-28.7667,114.6,21.23,21,48,5.66,AU,1712253488
553,darwin,-12.4611,130.8418,26.99,81,40,2.06,AU,1712253325
554,povarovo,56.0667,37.05,2.12,81,100,2.92,RU,1712253585
555,thunder bay,48.4001,-89.3168,6.99,42,75,6.69,CA,1712253396
556,melfi,40.9965,15.6514,13.39,83,9,1.89,IT,1712253585
557,robertsport,6.7533,-11.3686,27.74,85,21,4.73,LR,1712253585
558,weno,7.4515,151.8468,28.14,77,99,9.72,FM,1712253586
559,klaksvik,62.2266,-6.589,3.51,69,100,10.84,FO,1712253586
560,ishigaki,24.3448,124.1572,24.07,100,75,2.06,JP,1712253586
561,punta cardon,11.6581,-70.215,29.61,69,73,11.03,VE,1712253586
562,pauini,-7.7136,-66.9764,30.22,76,81,0.96,BR,1712253586
563,pacific grove,36.6177,-121.9166,8.57,87,100,0.89,US,1712253544
564,el bauga,18.262,33.9081,32.11,18,50,4.81,SD,1712253586
565,kambove,-10.8764,26.5969,18.08,95,43,1.19,CD,1712253586
566,bay harbor,30.1471,-85.6146,21.23,46,20,8.23,US,1712253587
567,cacu,-18.5567,-51.1308,29.99,62,35,1.66,BR,1712253587
568,ust'-ilimsk,58.0006,102.6619,-7.1,81,97,4.02,RU,1712253587
569,knyazhichi,50.4627,30.7837,8.27,72,75,2.31,UA,1712253587
570,agadez,19.75,10.25,32.14,7,2,4.11,NE,1712253587
571,havelberg,52.8309,12.0755,12.76,86,100,0.45,DE,1712253587
572,puerto quijarro,-17.7833,-57.7667,33.17,52,51,0.65,BO,1712253587
573,sept-iles,50.2001,-66.3821,4.29,57,100,4.63,CA,1712253329
574,aleksandrov gay,50.147,48.5704,11.26,59,100,3.37,RU,1712253338
575,nagqu,31.5,92.0,-2.65,38,72,3.06,CN,1712253587
576,la ronge,55.1001,-105.2842,1.14,93,100,1.54,CA,1712253587
577,bejaia,36.7559,5.0843,17.6,72,0,2.06,DZ,1712253587
578,vyksa,55.3175,42.1744,5.99,82,99,2.52,RU,1712253588
579,ribeira brava,32.65,-17.0667,22.62,80,14,2.6,PT,1712253588
580,fenoarivo be,-18.4333,46.5667,20.71,78,83,2.05,MG,1712253588
581,santa cruz,-17.8,-63.1667,33.03,55,40,7.72,BO,1712253540
582,luderitz,-26.6481,15.1594,18.49,78,4,8.03,NA,1712253588
583,jwaneng,-24.6004,24.7303,20.78,66,96,3.26,BW,1712253588
584,san fernando de apure,7.8878,-67.4724,38.49,29,36,3.78,VE,1712253588
585,hilo,19.7297,-155.09,22.57,91,72,1.79,US,1712253588
586,anantnag,33.7333,75.15,11.53,52,100,1.14,IN,1712253588
587,zouerate,22.7187,-12.4521,33.94,9,6,3.36,MR,1712253588
588,boyolangu,-8.1181,111.8935,24.61,90,99,0.96,ID,1712253589
589,monterrey,25.6667,-100.3167,25.49,31,0,8.05,MX,1712253543
590,sao miguel do araguaia,-13.275,-50.1628,31.0,63,53,1.67,BR,1712253499
591,tucurui,-3.7661,-49.6725,30.07,70,87,0.85,BR,1712253589
592,blackwater,-23.5833,148.8833,21.0,89,11,2.52,AU,1712253589
593,calbuco,-41.768,-73.1273,13.56,79,74,3.93,CL,1712253589
594,louhans,46.6667,5.1667,17.94,89,100,2.29,FR,1712253589
595,malabar,-33.9667,151.25,19.47,90,100,7.72,AU,1712253589
596,kismayo,-0.3582,42.5454,28.39,77,89,3.1,SO,1712253589
